bfs_number,rooms,area,price,postalcode,address,town,description_raw,bfs_name,pop,pop_dens,frg_pct,emp,tax_income,lat,lon,x,y,latitude,longitude,distance_to_hospital
261,2.5,45,2520,8004,8004 Zürich, Zürich,"«MÖBLIERT, TEMPORÄR: 2½ ZI-WOHNUNG IN ZÜRICH - KREIS 4 HARD»",Zürich,420217,4778.9946548391,32.4584678868,491193.0,85446,47.377140045166016,8.515775680541992,247925.203125,681344.9375,47.3744489,8.5410422,821.2456099148582
261,2.5,48,3360,8004,8004 Zürich, Zürich,«MÖBLIERT: 2½ ZI-WOHNUNG IN ZÜRICH - KREIS 4»,Zürich,420217,4778.9946548391,32.4584678868,491193.0,85446,47.377140045166016,8.515775680541992,247925.203125,681344.9375,47.3744489,8.5410422,821.2456099148582
261,2.5,50,2900,8004,8004 Zürich, Zürich,«Mitten im In-Quartier von Zürich»,Zürich,420217,4778.9946548391,32.4584678868,491193.0,85446,47.377140045166016,8.515775680541992,247925.203125,681344.9375,47.3744489,8.5410422,821.2456099148582
261,1.0,10,1499,8004,8004 Zürich, Zürich,"«Studio, Zürich Zentrum, unbefristet»",Zürich,420217,4778.9946548391,32.4584678868,491193.0,85446,47.377140045166016,8.515775680541992,247925.203125,681344.9375,47.3744489,8.5410422,821.2456099148582
261,2.5,73,3460,8041,8041 Zürich, Zürich,"«EXTRAVAGANT, MODERN, DIREKT AN DER SIHL!»",Zürich,420217,4778.9946548391,32.4584678868,491193.0,85446,47.32240295410156,8.51379680633545,241838.015625,681278.9375,47.3744489,8.5410422,821.2456099148582
261,2.0,58,1825,8047,"Letzigraben 236, 8047 Zürich", Zürich,«Ihre neues Zuhause in Zürich!»,Zürich,420217,4778.9946548391,32.4584678868,491193.0,85446,47.37076568603516,8.492475509643555,247192.890625,679595.0,47.3707874,8.492474112140744,609.2604137907805
261,4.5,170,6600,8005,"Limmatstrasse 260, 8005 Zürich", Zürich,«Exklusiv! Grosszügig! Wohngenuss pur!»,Zürich,420217,4778.9946548391,32.4584678868,491193.0,85446,47.38913345336914,8.52584171295166,249269.078125,682086.625,47.3891196,8.525807637096419,1109.4126407408974
261,3.5,146,5550,8005,"Limmatstrasse 260, 8005 Zürich", Zürich,"«Exklusive, lichtdurchflutete 3.5-Zimmerwohnung mitten in Zürich»",Zürich,420217,4778.9946548391,32.4584678868,491193.0,85446,47.38913345336914,8.52584171295166,249269.078125,682086.625,47.3891196,8.525807637096419,1109.4126407408974
261,2.0,46,1475,8050,"Güetliweg 5, 8050 Zürich", Zürich,"«An zentraler, ruhiger Lage, gepflegte Umgebung im Grünen»",Zürich,420217,4778.9946548391,32.4584678868,491193.0,85446,47.41283798217773,8.53046989440918,251909.375,682399.375,47.4128185,8.530450706945455,1010.2231600225883
261,1.5,35,1740,8037,"Lehenstrasse 51, 8037 Zürich", Zürich,"«1.5-Zimmer-Wohnung an ruhiger, zentraler Lage»",Zürich,420217,4778.9946548391,32.4584678868,491193.0,85446,47.39653015136719,8.523354530334473,250088.859375,681887.4375,47.3965326,8.523371245510827,304.5329906722707
261,2.5,65,5900,8037,"Rosengartenstrasse 55, 8037 Zürich", Zürich,«Serviced 1-bedroom with great view and luxurious interior design»,Zürich,420217,4778.9946548391,32.4584678868,491193.0,85446,47.3958854675293,8.529154777526855,250023.078125,682326.3125,47.39586895,8.52916275991669,717.2038530866621
261,2.5,75,6900,8037,"Rosengartenstrasse 55, 8037 Zürich", Zürich,"«""Serviced 1-bedroom apartment: spectacular view & luxurious interior»",Zürich,420217,4778.9946548391,32.4584678868,491193.0,85446,47.3958854675293,8.529154777526855,250023.078125,682326.3125,47.39586895,8.52916275991669,717.2038530866621
261,3.5,81,3673,8037,"Kleinertstrasse 2, 8037 Zürich", Zürich,«Individuelle 3.5 EG Wohnung»,Zürich,420217,4778.9946548391,32.4584678868,491193.0,85446,47.39432907104492,8.523425102233887,249844.328125,681896.1875,47.394342050000006,8.523426600000004,505.32009758145335
261,1.0,26,1500,8037,"Nordstrasse 166, 8037 Zürich", Zürich,«Urbanes Wohngefühl sucht neuen Mieter»,Zürich,420217,4778.9946548391,32.4584678868,491193.0,85446,47.391727447509766,8.532544136047363,249564.59375,682588.625,47.3917397,8.532540046415589,1177.0216730832838
261,1.0,26,1520,8037,"Nordstrasse 166, 8037 Zürich", Zürich,«Urbanes Wohngefühl sucht neuen Mieter»,Zürich,420217,4778.9946548391,32.4584678868,491193.0,85446,47.391727447509766,8.532544136047363,249564.59375,682588.625,47.3917397,8.532540046415589,1177.0216730832838
261,1.0,27,1171,8037,"Nürenbergstrasse 23, 8037 Zürich", Zürich,«Tolle Wohnung mit Balkon - ideal für Singles!»,Zürich,420217,4778.9946548391,32.4584678868,491193.0,85446,47.39301681518555,8.533440589904785,249708.90625,682654.25,47.39303065,8.533426345253847,1148.9439928096763
261,2.5,73,2870,8037,"Wibichstrasse 33, 8037 Zürich", Zürich,«Umfassend sanierte Duplex Dachwohnung»,Zürich,420217,4778.9946548391,32.4584678868,491193.0,85446,47.39711380004883,8.529072761535645,250159.765625,682318.25,47.3970956,8.52906905,668.4114144112668
261,2.0,53,2525,8008,"Seefeldstrasse, 8008 Zürich", Zürich,«Appartement Zürich - 2 pièces»,Zürich,420217,4778.9946548391,32.4584678868,491193.0,85446,47.36523818969727,8.548137664794922,246635.984375,683807.5,47.35247303077975,8.559519262997174,889.4478464044159
261,2.5,75,6900,8008,"Zollikerstrasse 227, 8008 Zürich", Zürich,«2.5 Zimmerwohnung mit Seesicht und Garten»,Zürich,420217,4778.9946548391,32.4584678868,491193.0,85446,47.348854064941406,8.565671920776367,244833.859375,685158.0,47.3488775,8.565708452102804,588.9850315103383
261,2.5,101,4800,8008,8008 Zürich, Zürich,"«MODERN, HELL, SMART-HOME, GESICHERTE UMGEBUNG»",Zürich,420217,4778.9946548391,32.4584678868,491193.0,85446,47.354148864746094,8.560637474060059,245416.75,684769.1875,47.3744489,8.5410422,821.2456099148582
261,1.0,36,1655,8008,"Nebelbachstrasse 5, 8008 Zürich", Zürich,«Moderne Wohnung im Seefeld in unmittelbarer Nähe zum Zürichsee»,Zürich,420217,4778.9946548391,32.4584678868,491193.0,85446,47.35296249389648,8.558126449584961,245282.1875,684581.375,47.3529598,8.558115946801962,996.3146620948972
261,1.5,37,1875,8008,"Südstrasse 3, 8008 Zürich", Zürich,"«Klein, aber fein: Die perfekte Wohnung für Singles im beliebten Seefeld»",Zürich,420217,4778.9946548391,32.4584678868,491193.0,85446,47.355262756347656,8.561944961547852,245542.234375,684866.25,47.3552724,8.561952949068935,766.5624822485233
261,2.5,70,2990,8008,"Zollikerstrasse 164, 8008 Zürich", Zürich,«Hier wohnen Sie im ersten Monat gratis!»,Zürich,420217,4778.9946548391,32.4584678868,491193.0,85446,47.35410690307617,8.561359405517578,245412.75,684823.8125,47.3541168,8.5614229,764.9801548633848
261,2.0,70,1625,8049,8049 Zürich, Zürich,"«MÖBLIERT, TEMPORÄR: 2 ZI-WOHNUNG IN ZÜRICH - KREIS 10 HÖNGG»",Zürich,420217,4778.9946548391,32.4584678868,491193.0,85446,47.4071159362793,8.494709968566895,251235.96875,679709.25,47.3744489,8.5410422,821.2456099148582
261,3.5,114,4100,8057,"Hofwiesenstrasse 165, 8057 Zürich", Zürich,«Wohnung im Eigentumsstandard»,Zürich,420217,4778.9946548391,32.4584678868,491193.0,85446,47.40107727050781,8.533770561218262,250605.234375,682666.625,47.401105,8.533752381913736,1049.685364290721
261,1.5,30,2550,8057,8057 Zürich, Zürich,«Mitten im Universitätsquartier von Zürich»,Zürich,420217,4778.9946548391,32.4584678868,491193.0,85446,47.40449523925781,8.5419921875,250993.71875,683281.9375,47.3744489,8.5410422,821.2456099148582
261,8.5,210,8500,8002,8002 Zürich, Zürich,"«""BEFRISTET"" HEIMATSTIL VILLA IM ENGE QUARTIER»",Zürich,420217,4778.9946548391,32.4584678868,491193.0,85446,47.36441040039063,8.53575611114502,246530.90625,682873.5625,47.3744489,8.5410422,821.2456099148582
261,2.5,89,3900,8002,8002 Zürich, Zürich,«Urbanes Wohnen im Zentrum der Stadt»,Zürich,420217,4778.9946548391,32.4584678868,491193.0,85446,47.36441040039063,8.53575611114502,246530.90625,682873.5625,47.3744489,8.5410422,821.2456099148582
261,2.5,90,3130,8044,"Freudenbergstrasse, 8044 Zürich", Zürich,«Exklusive Gartenwohnung im ruhigen Zürichberg-Quartier»,Zürich,420217,4778.9946548391,32.4584678868,491193.0,85446,47.37955474853516,8.559854507446289,248240.3125,684669.6875,47.38347885560805,8.556889654185827,299.0471139993864
261,1.5,63,2980,8044,"Keltenstrasse 12, 8044 Zürich", Zürich,«Neubau Dachwohnung in Zürich Fluntern»,Zürich,420217,4778.9946548391,32.4584678868,491193.0,85446,47.37654876708984,8.561196327209473,247907.46875,684775.8125,47.3764916,8.561134851774732,553.7919087478251
261,3.5,78,2970,8044,"Susenbergstrasse 142, 8044 Zürich", Zürich,«Ein einmaliges Wohnerlebnis auf dem Zürichberg wartet auf Sie!»,Zürich,420217,4778.9946548391,32.4584678868,491193.0,85446,47.384761810302734,8.55949878692627,248818.953125,684634.5625,47.38480305,8.559527153076749,467.9756580234568
261,3.0,100,4200,8044,"Fritz-Fleiner-Weg, 8044 Zürich", Zürich,«Appartement Zürich - 3 pièces»,Zürich,420217,4778.9946548391,32.4584678868,491193.0,85446,47.381935119628906,8.560834884643555,248506.125,684739.9375,47.38174903228204,8.560906256830954,276.22251499945344
261,2.5,100,3585,8044,"Neuhausstrasse 11, 8044 Zürich", Zürich,«Wohnen am Zürichberg»,Zürich,420217,4778.9946548391,32.4584678868,491193.0,85446,47.37740707397461,8.564168930053711,248006.421875,684998.875,47.37744025000001,8.564158852123388,627.1642054082057
261,6.5,250,7200,8044,"Schlössliweg 9, 8044 Zürich", Zürich,«Exklusives Wohnen am Züriberg mit Blick über die Stadt & den Zürisee»,Zürich,420217,4778.9946548391,32.4584678868,491193.0,85446,47.38334655761719,8.558879852294922,248660.734375,684590.0625,47.38335685,8.55884519506109,299.2043278737043
261,2.5,64,2560,8032,"Forchstrasse 150, 8032 Zürich", Zürich,«2.5-Zimmer-Loft Wohnung an Top Lage zu vermieten!»,Zürich,420217,4778.9946548391,32.4584678868,491193.0,85446,47.360294342041016,8.564233779907227,246104.0,685031.125,47.36032,8.564201625820157,1014.0094006854425
261,7.0,180,6300,8032,8032 Zürich, Zürich,"«ELEGANTES WOHNEN AM ZÜRICHBERG, MIT CHEMINÉE»",Zürich,420217,4778.9946548391,32.4584678868,491193.0,85446,47.37275695800781,8.551040649414062,247475.015625,684014.875,47.3744489,8.5410422,821.2456099148582
261,4.5,126,4000,8032,"Hammerstrasse 54b, 8032 Zürich", Zürich,«Zentral gelegene Wohnung im Grünen»,Zürich,420217,4778.9946548391,32.4584678868,491193.0,85446,47.36020278930664,8.562192916870117,246091.390625,684877.125,47.3602469,8.5621652,1096.6986132320533
261,4.5,146,5900,8032,8032 Zürich, Zürich,"«ZENTRAL UND GROSSZÜGIG, MIT HERRLICHER AUSSICHT»",Zürich,420217,4778.9946548391,32.4584678868,491193.0,85446,47.37275695800781,8.551040649414062,247475.015625,684014.875,47.3744489,8.5410422,821.2456099148582
261,2.5,60,2383,8032,"Witikonerstrasse 54, 8032 Zürich", Zürich,«Wohlfühloase im Herzen von Zürich»,Zürich,420217,4778.9946548391,32.4584678868,491193.0,85446,47.36197662353516,8.568775177001953,246295.96875,685371.4375,47.36194515,8.56867672166743,1060.270950518864
261,4.5,165,6293,8032,"Plattenstr. 34, 8032 Zürich", Zürich,«Attikawohnung mit eigener Rooftop»,Zürich,420217,4778.9946548391,32.4584678868,491193.0,85446,47.37311553955078,8.553730964660645,247518.09375,684217.4375,47.3731159,8.553716339496717,561.7433686807441
261,7.0,170,6400,8032,"Bergstrasse 76, 8032 Zürich", Zürich,«7-Zimmerwohnung an bester Lage von Zürich»,Zürich,420217,4778.9946548391,32.4584678868,491193.0,85446,47.371089935302734,8.562350273132324,247302.125,684871.625,47.3711029,8.562308799380734,1143.0926260456138
261,3.5,115,4299,8032,"Steinwiesstrasse 63, 8032 Zürich", Zürich,«Wohnen im Irispark»,Zürich,420217,4778.9946548391,32.4584678868,491193.0,85446,47.37158584594727,8.55572509765625,247350.09375,684370.4375,47.3716072,8.555664397322971,777.0950033001993
261,3.5,108,3732,8032,"Wolfbachstrasse 18, 8032 Zürich", Zürich,«3.5 Zimmerwohnung in Zürich»,Zürich,420217,4778.9946548391,32.4584678868,491193.0,85446,47.37040328979492,8.551278114318848,247213.640625,684036.5625,47.3704234,8.551210287018325,815.7338883653414
261,3.5,97,3739,8032,"Treichlerstrasse 3, 8032 Zürich", Zürich,«Charmante Wohnung an guter Lage»,Zürich,420217,4778.9946548391,32.4584678868,491193.0,85446,47.370853424072266,8.557756423950195,247270.78125,684525.125,47.370862,8.5577648046032,930.855633206014
261,3.5,66,3200,8032,"Merkurstrasse 18, 8032 Zürich", Zürich,«Traumhafte und frisch renovierte 3.5-Zimmer-Wohnung an bester Lage»,Zürich,420217,4778.9946548391,32.4584678868,491193.0,85446,47.36674880981445,8.553874969482422,246810.0625,684238.4375,47.3667479,8.55387296916499,1245.9623360804023
261,5.5,138,6650,8032,"Carmenstrasse 2, 8032 Zürich", Zürich,"«Erstbezug: Schöne, lichtdurchflutete 5.5-Zimmerwohnungen nach Totalrenovation»",Zürich,420217,4778.9946548391,32.4584678868,491193.0,85446,47.37083435058594,8.561092376708984,247272.328125,684777.0,47.37083895,8.561076557973607,1094.2343916735233
261,1.0,23,1200,8032,"Neptunstrasse 42, 8032 Zürich", Zürich,«Singlewohnung Nähe Kreuzplatz»,Zürich,420217,4778.9946548391,32.4584678868,491193.0,85446,47.36663818359375,8.556288719177246,246800.515625,684420.875,47.3666375,8.55624990530303,1303.4806820943124
261,5.5,183,50,8032,"Hohenbühlstrasse 7, 8032 Zürich", Zürich,«Exklusive Wohnung an Toplage»,Zürich,420217,4778.9946548391,32.4584678868,491193.0,85446,47.36630630493164,8.551867485046387,246758.96875,684087.5,47.36630345,8.551874991027747,1275.8416491308349
261,5.5,138,6450,8032,"Carmenstrasse 2, 8032 Zürich", Zürich,"«Erstbezug: Schöne, lichtdurchflutete 5.5-Zimmerwohnungen nach Totalrenovation»",Zürich,420217,4778.9946548391,32.4584678868,491193.0,85446,47.37083435058594,8.561092376708984,247272.328125,684777.0,47.37083895,8.561076557973607,1094.2343916735233
261,3.5,85,3499,8048,8048 Zürich, Zürich,"«MÖBLIERT, TEMPORÄR: 3½ ZI-WOHNUNG IN ZÜRICH - KREIS 9 ALTSTETTEN»",Zürich,420217,4778.9946548391,32.4584678868,491193.0,85446,47.39164352416992,8.48184871673584,249502.9375,678761.5,47.3744489,8.5410422,821.2456099148582
261,2.5,48,2340,8048,8048 Zürich, Zürich,«Baden - Hochwertig möblierte Apartments im neuen Akara Tower Baden»,Zürich,420217,4778.9946548391,32.4584678868,491193.0,85446,47.39164352416992,8.48184871673584,249502.9375,678761.5,47.3744489,8.5410422,821.2456099148582
261,3.5,86,3310,8048,8048 Zürich, Zürich,«Baden - Hochwertig möblierte Apartments im neuen Akara Tower Baden»,Zürich,420217,4778.9946548391,32.4584678868,491193.0,85446,47.39164352416992,8.48184871673584,249502.9375,678761.5,47.3744489,8.5410422,821.2456099148582
261,4.0,90,3550,8046,8046 Zürich, Zürich,«Ihre neue Traumwohnung mit Gartenoase»,Zürich,420217,4778.9946548391,32.4584678868,491193.0,85446,47.4151725769043,8.527069091796875,252165.359375,682139.125,47.3744489,8.5410422,821.2456099148582
261,3.0,80,3350,8046,8046 Zürich, Zürich,«Renovierter Wohntraum mit Wintergarten»,Zürich,420217,4778.9946548391,32.4584678868,491193.0,85446,47.4151725769043,8.527069091796875,252165.359375,682139.125,47.3744489,8.5410422,821.2456099148582
261,2.5,58,1685,8046,8046 Zürich, Zürich,"«MÖBLIERT, TEMPORÄR: 2½ ZI-WOHNUNG IN ZÜRICH - KREIS 11 AFFOLTERN»",Zürich,420217,4778.9946548391,32.4584678868,491193.0,85446,47.4151725769043,8.527069091796875,252165.359375,682139.125,47.3744489,8.5410422,821.2456099148582
261,4.5,105,3500,8046,"Wehntalerstrasse 424, 8046 Zürich", Zürich,«Gartenwohnung in ruhiger Lage»,Zürich,420217,4778.9946548391,32.4584678868,491193.0,85446,47.41547775268555,8.515069961547852,252186.796875,681233.1875,47.4155021,8.515003857752632,193.68949437849454
261,2.0,52,1788,8046,"Riedenhaldenstrasse 54, 8046 Zürich", Zürich,«Städtisch Leben - entspannt Wohnen»,Zürich,420217,4778.9946548391,32.4584678868,491193.0,85446,47.41622543334961,8.515331268310547,252269.921875,681251.75,47.4162715,8.515362,214.89657550876726
261,2.0,43,1797,8046,"Riedenhaldenstrasse 80, 8046 Zürich", Zürich,«Gemütliche und moderne Wohnung»,Zürich,420217,4778.9946548391,32.4584678868,491193.0,85446,47.4168701171875,8.514753341674805,252341.1875,681207.125,47.4168898,8.5147934,293.97041230344774
261,3.5,70,1785,8046,"Waldstrasse 15/17, 8046 Zürich", Zürich,«Ruhiges Quartier»,Zürich,420217,4778.9946548391,32.4584678868,491193.0,85446,47.40990447998047,8.52392864227295,251576.234375,681910.25,47.40983115874009,8.523514440921833,730.7284580905947
261,4.0,90,3790,8038,8038 Zürich, Zürich,"«CHARMANT, MIT EIGENEM GARTENSITZPLATZ»",Zürich,420217,4778.9946548391,32.4584678868,491193.0,85446,47.341087341308594,8.535780906677246,243938.25,682911.75,47.3744489,8.5410422,821.2456099148582
261,3.5,81,3893,8001,"St. Urbangasse 8, 8001 Zürich", Zürich,«Moderne Wohnung beim Bellevue»,Zürich,420217,4778.9946548391,32.4584678868,491193.0,85446,47.367164611816406,8.546512603759766,246848.625,683681.6875,47.36716925,8.546502743875589,1220.112124533215
261,4.5,137,875,8001,8001 Zürich, Zürich,«HISTORISCH MIT PRIVATER SONNENTERRASSE IM ZENTRUM»,Zürich,420217,4778.9946548391,32.4584678868,491193.0,85446,47.3723030090332,8.551877975463867,247425.65625,684078.875,47.3744489,8.5410422,821.2456099148582
261,1.0,14,965,8001,"Gräbligasse 3, 8001 Zürich", Zürich,"«Möbliertes Studentenzimmer, im Niederdorf (34)»",Zürich,420217,4778.9946548391,32.4584678868,491193.0,85446,47.37565612792969,8.544196128845215,247790.375,683493.4375,47.3756375,8.5442399,546.2360770673878
261,4.5,107,4860,8001,"Untere Zäune 7, 8001 Zürich", Zürich,«WOHNEN IM BELIEBTEN ZÜRCHER NIEDERDORF»,Zürich,420217,4778.9946548391,32.4584678868,491193.0,85446,47.37126922607422,8.546184539794922,247304.578125,683650.5,47.37131865,8.546165541037738,795.4455180263418
261,3.5,96,3390,8001,"Stadelhoferstrasse 12, 8001 Zürich", Zürich,«Altbauwohnung mit Charme / Maisonette»,Zürich,420217,4778.9946548391,32.4584678868,491193.0,85446,47.36679458618164,8.547520637512207,246808.5,683758.4375,47.36680595,8.547533694859602,1241.4831837212341
261,3.5,80,3150,8001,"Untere Zäune 20, 8001 Zürich", Zürich,«3.5 Zimmer Wohnung in Zürich»,Zürich,420217,4778.9946548391,32.4584678868,491193.0,85446,47.37178421020508,8.545750617980957,247361.375,683616.875,47.37179165,8.54573088073144,764.2889150845513
261,1.5,75,3300,8001,"Oetenbachgasse 11, 8001 Zürich", Zürich,«Redefinieren Sie Luxus: Ihr Rückzugsort im Zürcher Zentrum»,Zürich,420217,4778.9946548391,32.4584678868,491193.0,85446,47.3739013671875,8.539582252502441,247590.0625,683147.75,47.37383095,8.539609803619223,948.8233401212203
261,4.5,140,9170,8006,"Engweg 8, 8006 Zürich", Zürich,«A modernist’s home: 2/3 Schlafzimmer SERVICED APARTMENT in der City»,Zürich,420217,4778.9946548391,32.4584678868,491193.0,85446,47.3852653503418,8.53763198852539,248851.578125,682982.75,47.38529385,8.537645642383282,1297.8368864313247
261,4.5,140,8990,8006,"Universitätstrasse 41, 8006 Zürich", Zürich,«Living at Large: Penthouse SERVICED 2/3-Bedroom Apartment»,Zürich,420217,4778.9946548391,32.4584678868,491193.0,85446,47.38043975830078,8.547943115234375,248325.828125,683768.875,47.3804102,8.54788668369705,366.7383942186778
261,3.5,88,3190,8006,"Universitätstrasse 84, 8006 Zürich", Zürich,«Charmante 3.5-Zimmer-Attikawohnung mitten im Kreis 6»,Zürich,420217,4778.9946548391,32.4584678868,491193.0,85446,47.38287734985352,8.548396110534668,248597.296875,683799.25,47.38287345,8.548386374869544,596.8469673577927
261,4.0,90,3450,8006,"Nelkenstrasse 7, 8006 Zürich", Zürich,«Stadtwohnung an zentraler Lage im Kreis 6»,Zürich,420217,4778.9946548391,32.4584678868,491193.0,85446,47.3819465637207,8.546003341674805,248491.375,683620.0,47.3819566,8.545992376490277,590.1494361452425
261,1.0,23,1270,8006,"Ekkehardstrasse 32, 8006 Zürich", Zürich,«Gemütliche 1-Zimmerwohnung zu vermieten»,Zürich,420217,4778.9946548391,32.4584678868,491193.0,85446,47.38648223876953,8.544576644897461,248994.0,683505.1875,47.38647085,8.544589059313319,1075.524906074462
261,3.5,97,3700,8006,"Stampfenbachplatz 4, 8006 Zürich", Zürich,«Modernes Bijoux - in unmittelbarer Nähe vom Hauptbahnhof»,Zürich,420217,4778.9946548391,32.4584678868,491193.0,85446,47.380401611328125,8.542487144470215,248316.078125,683356.9375,47.380415,8.542465411929726,693.1945180663389
261,2.5,62,2335,8006,"Geissbergweg 21, 8006 Zürich", Zürich,«Helle & Grosszügige 2.5-Zimmerwohnung an Top Lage»,Zürich,420217,4778.9946548391,32.4584678868,491193.0,85446,47.38663864135742,8.550338745117188,249017.625,683940.0,47.38665805,8.550307001516757,846.716193844388
261,4.5,174,7900,8053,8053 Zürich, Zürich,"«MODERN, LUXURIÖS UND UNENDLICH VIEL RAUM»",Zürich,420217,4778.9946548391,32.4584678868,491193.0,85446,47.35861587524414,8.578998565673828,245933.5625,686149.125,47.3744489,8.5410422,821.2456099148582
261,2.5,60,2780,8053,8053 Zürich, Zürich,«EINZIGARTIG AM STADTRAND»,Zürich,420217,4778.9946548391,32.4584678868,491193.0,85446,47.35861587524414,8.578998565673828,245933.5625,686149.125,47.3744489,8.5410422,821.2456099148582
261,1.0,33,1445,8053,"Im Brächli 58/60, 8053 Zürich", Zürich,«Die perfekte Singlewohnung - charmante Dachwohnung in Witikon»,Zürich,420217,4778.9946548391,32.4584678868,491193.0,85446,47.35979843139648,8.581890106201172,246068.203125,686365.625,47.360642906871696,8.58043372642895,1132.09258295853
261,1.0,33,1314,8053,"Im Brächli 58/60, 8053 Zürich", Zürich,«Die perfekte Singlewohnung - charmante Dachwohnung in Witikon»,Zürich,420217,4778.9946548391,32.4584678868,491193.0,85446,47.35979843139648,8.581890106201172,246068.203125,686365.625,47.360642906871696,8.58043372642895,1132.09258295853
261,1.5,40,2142,8055,8055 Zürich, Zürich,"«MÖBLIERT, TEMPORÄR: 1½ ZI-WOHNUNG IN ZÜRICH - KREIS 3»",Zürich,420217,4778.9946548391,32.4584678868,491193.0,85446,47.36477279663086,8.505189895629883,246539.53125,680564.25,47.3744489,8.5410422,821.2456099148582
261,3.5,70,4110,8055,"Friesenbergstrasse 221, 8055 Zürich", Zürich,"«Moderne Wiedikon 3.5ZW mit Keller und W/T, nah z. SBahn, über Bluegrou»",Zürich,420217,4778.9946548391,32.4584678868,491193.0,85446,47.36202621459961,8.50424575805664,246232.953125,680497.0625,47.3620284,8.504250373202282,712.812057974246
261,2.0,53,2470,8055,"Döltschiweg 39, 8055 Zürich", Zürich,«Wo Luxus und Privatspähre sich trifft»,Zürich,420217,4778.9946548391,32.4584678868,491193.0,85446,47.367286682128906,8.508193969726562,246822.0,680787.375,47.3672916,8.508208345754735,817.3245782849796
261,5.0,110,3690,8055,"Birmensdorferstrasse 470, 8055 Zürich", Zürich,"«Schöne, 5-Zimmerwohnung an zentraler Lage»",Zürich,420217,4778.9946548391,32.4584678868,491193.0,85446,47.36862182617188,8.498102188110352,246960.3125,680023.125,47.36865265,8.498110418919286,246.9511964532627
261,4.5,100,4595,8055,"Birmensdorferstrasse 541, 8055 Zürich", Zürich,«Helle möblierte Stadtwohnung im Grünen»,Zürich,420217,4778.9946548391,32.4584678868,491193.0,85446,47.366729736328125,8.492531776428223,246744.015625,679605.25,47.36672785,8.492529731638276,373.02826808552794
243,3.0,62,1630,8953,"Urdorferstrasse 25, 8953 Dietikon", Dietikon,«Helle 3-Zimmerwohnung im 2.OG an zentraler Lage»,Dietikon,27746,2970.6638115632,46.2264830967,18911.0,65532,47.39739990234375,8.416020393371582,250078.734375,673783.75,47.3973802,8.4160447,1168.800909135957
250,3.0,62,1630,8953,"Urdorferstrasse 25, 8953 Dietikon", Dietikon,«Helle 3-Zimmerwohnung im 2.OG an zentraler Lage»,Urdorf,9981,1316.7546174143,24.9273619878,6398.0,77164,47.39739990234375,8.416020393371582,250078.734375,673783.75,47.3973802,8.4160447,1168.800909135957
250,3.5,74,1900,8902,"Bahnhofstr. 57, 8902 Urdorf", Urdorf,«Erstklassig Wohnen»,Urdorf,9981,1316.7546174143,24.9273619878,6398.0,77164,47.38595581054688,8.427886009216309,248818.0625,674695.5625,47.3859813,8.427968148797255,863.6902814046207
230,4.0,92,2340,8404,8404 Winterthur, Winterthur,«MÖBLIERT: 4 ZI-WOHNUNG IN WINTERTHUR - OBERWINTERTHUR»,Winterthur,113173,1662.5973262818,24.535003932,73339.0,70966,47.51799392700195,8.762868881225586,263869.5625,699739.375,47.5003138,8.7239736,799.7213432337477
230,5.5,200,5600,8404,8404 Winterthur, Winterthur,"«RUHIG UND SONNIG, MIT WUNDERSCHÖNER AUSSICHT»",Winterthur,113173,1662.5973262818,24.535003932,73339.0,70966,47.51799392700195,8.762868881225586,263869.5625,699739.375,47.5003138,8.7239736,799.7213432337477
230,2.5,68,1940,8404,"Sulzer-Allee 75, 8404 Winterthur", Winterthur,«Lebensfreude beginnt daheim»,Winterthur,113173,1662.5973262818,24.535003932,73339.0,70966,47.50296401977539,8.76480770111084,262201.21875,699913.625,,,
230,3.5,101,2210,8404,"Sulzer-Allee 77, 8404 Winterthur", Winterthur,«Energie sparen? Wohnung im Minergie-Haus»,Winterthur,113173,1662.5973262818,24.535003932,73339.0,70966,47.50281524658203,8.764863967895508,262184.4375,699918.125,,,
230,4.0,73,1713,8404,"Hegifeldstrasse 70, 8404 Reutlingen (Winterthur)", Reutlingen (Winterthur),«Heimelige 4-Zimmer-Wohnung in Winterthur-Hegi»,Winterthur,113173,1662.5973262818,24.535003932,73339.0,70966,47.5073127746582,8.768391609191895,262689.15625,700175.4375,,,
230,4.5,160,3200,8400,"Marktgasse 17, 8400 Winterthur", Winterthur,«Traumhaftes Wohnen in der Winterthurer Altstadt: Exklusive 4.5-Zimmer-Dachmaisonettewohnung»,Winterthur,113173,1662.5973262818,24.535003932,73339.0,70966,47.49971008300781,8.729727745056152,261795.1875,697276.875,47.4996647,8.729731213139473,809.7715812711662
230,3.5,80,1980,8400,"Wülflingerstrasse 25, 8400 Winterthur", Winterthur,«Schöne 3.5-Zimmerwohnung mit Balkon zu vermieten»,Winterthur,113173,1662.5973262818,24.535003932,73339.0,70966,47.50473785400391,8.71804428100586,262339.625,696387.5,47.5048252,8.71809871268383,801.6676896965391
230,4.5,117,3782,8400,8400 Winterthur, Winterthur,"«MÖBLIERT, TEMPORÄR: 4½ ZI-WOHNUNG IN WINTERTHUR - MATTENBACH»",Winterthur,113173,1662.5973262818,24.535003932,73339.0,70966,47.50355529785156,8.72974967956543,262222.875,697271.5,47.5003138,8.7239736,799.7213432337477
230,1.0,49,1390,8400,"Wartstr. 30, 8400 Winterthur", Winterthur,«Perfekte Single-Wohnung direkt am Bahnhof «Mieten ohne Kaution»»,Winterthur,113173,1662.5973262818,24.535003932,73339.0,70966,47.50136947631836,8.72093677520752,261968.984375,696611.5,47.50143485,8.720912810554996,822.4519641898668
230,4.5,112,3360,8400,8400 Winterthur, Winterthur,"«MÖBLIERT, TEMPORÄR: 4½ ZI-WOHNUNG IN WINTERTHUR - STADT»",Winterthur,113173,1662.5973262818,24.535003932,73339.0,70966,47.50355529785156,8.72974967956543,262222.875,697271.5,47.5003138,8.7239736,799.7213432337477
230,3.5,102,3290,8400,"Oberer Graben 34, 8400 Winterthur", Winterthur,«3.5 Zimmerwohnung in Winterthur»,Winterthur,113173,1662.5973262818,24.535003932,73339.0,70966,47.499420166015625,8.731341361999512,261765.140625,697399.0,47.49943995,8.73151928756312,862.3866009600225
230,2.0,61,1990,8400,"Neumarkt 7, 8400 Winterthur", Winterthur,«Helle Altstadtwohnung mit Balkon und Galeriegeschoss»,Winterthur,113173,1662.5973262818,24.535003932,73339.0,70966,47.49863052368164,8.726170539855957,261670.578125,697010.875,47.49860175,8.726046651545733,936.2009854659915
230,2.5,54,1790,8400,"Zielstrasse 13, 8400 Winterthur", Winterthur,«Einmalige 2.5-Zimmer-Wohnung in Stadtnähe»,Winterthur,113173,1662.5973262818,24.535003932,73339.0,70966,47.51123046875,8.719283103942871,263062.9375,696469.125,47.51127555,8.719268512861369,808.6275635541773
230,3.0,66,1760,8400,"Feldstrasse 11, 8400 Winterthur", Winterthur,"«Wohnung mit Balkon, an zentraler Lage in Winterthur»",Winterthur,113173,1662.5973262818,24.535003932,73339.0,70966,47.508487701416016,8.718109130859375,262756.8125,696385.625,47.50847275,8.717872178375675,805.0098085207433
230,1.0,18,1088,8400,"Tösstalstrasse 16, 8400 Winterthur", Winterthur,«Studio für Studenten/Praktikanten/Auszubildende in der Altstadt»,Winterthur,113173,1662.5973262818,24.535003932,73339.0,70966,47.49816131591797,8.732038497924805,261626.015625,697453.8125,47.4981027,8.732073268748326,1016.8020037081386
230,3.5,100,2700,8400,"Marktgasse 36, 8400 Winterthur", Winterthur,«Genial gelegene 3.5 Zimmer Wohnung im Herzen von Winterthur»,Winterthur,113173,1662.5973262818,24.535003932,73339.0,70966,47.49973678588867,8.729105949401855,261797.25,697230.0,47.4998075,8.729117662607525,789.0817115252132
230,4.5,104,2820,8400,"Magazingasse 2, 8400 Winterthur", Winterthur,«Stadtnahes Wohnen»,Winterthur,113173,1662.5973262818,24.535003932,73339.0,70966,47.50620651245117,8.71890640258789,262504.0,696449.8125,47.506225,8.718820075039462,717.712337030027
230,2.5,73,2010,8400,"Stadthausstr. 13, 8400 Winterthur", Winterthur,"«Maisonette-Wohnung im Herzen der Stadt ""Mieten ohne Kaution""»",Winterthur,113173,1662.5973262818,24.535003932,73339.0,70966,47.49967193603516,8.725452423095703,261785.4375,696954.875,47.50019474787055,8.728720069976978,744.2854486001305
230,2.5,80,1678,8400,"Marktgasse 54, 8400 Winterthur", Winterthur,«Grosse 2 .5-Zimmerwohnung im Herzen der Winterthurer Altstadt»,Winterthur,113173,1662.5973262818,24.535003932,73339.0,70966,47.49965286254883,8.72838020324707,261787.109375,697175.5,47.49972865,8.728337464969034,795.4310046462292
230,3.5,91,2480,8400,"Rudolfstr. 25, 8400 Winterthur", Winterthur,«Modernes Wohnen im Herzen der Stadt»,Winterthur,113173,1662.5973262818,24.535003932,73339.0,70966,47.50188446044922,8.723417282104492,262029.015625,696797.5,47.50180325,8.723266706659727,680.1552963057452
230,1.0,32,1005,8400,"Neuwiesenstr. 14, 8400 Winterthur", Winterthur,«Nähe Hauptbahnhof Winterthur»,Winterthur,113173,1662.5973262818,24.535003932,73339.0,70966,47.50178146362305,8.72087287902832,262014.625,696606.0,47.5017476,8.72103913003033,790.5767295369503
230,2.5,91,2115,8400,"Steiggasse 3, 8400 Winterthur", Winterthur,«Erstbezug: Sanierte Wohnung im Herzen der Winterthurer Altstadt»,Winterthur,113173,1662.5973262818,24.535003932,73339.0,70966,47.498023986816406,8.727912902832031,261605.671875,697143.25,47.4980247,8.727871503363527,985.3942376677637
230,1.0,44,1390,8400,"Schaffhauserstrasse 6, 8400 Winterthur", Winterthur,«Moderne 1-Zimmerwohnung nähe Hauptbahnhof»,Winterthur,113173,1662.5973262818,24.535003932,73339.0,70966,47.5035285949707,8.725122451782227,262213.875,696922.9375,47.5039277,8.7249333,414.96268792152387
230,5.5,170,3900,8408,"Euelstrasse  56, 8408 Winterthur", Winterthur,«Die kanns: Sie begeistern!»,Winterthur,113173,1662.5973262818,24.535003932,73339.0,70966,47.51079940795898,8.680351257324219,262968.0,693537.3125,47.51077355,8.680309730982017,518.3952901629327
230,2.5,65,1930,8408,"Wässerwiesenstrasse 22, 8408 Winterthur", Winterthur,«2.5-Zimmer-Wohnung im Gartenhof Quartier»,Winterthur,113173,1662.5973262818,24.535003932,73339.0,70966,47.50918960571289,8.689857482910156,262800.34375,694256.25,47.5092079,8.6898097,426.1630045348497
230,4.5,99,2590,8408,"Hohfurristrasse 91, 8408 Winterthur", Winterthur,«Schöne 4.5-Zimmerwohnung in Wülflingen zu vermieten»,Winterthur,113173,1662.5973262818,24.535003932,73339.0,70966,47.50564193725586,8.696372032165527,262413.8125,694753.25,47.50852264362165,8.694162814166674,710.7197845706143
230,4.5,122,2550,8408,"Espenstrasse 91, 8408 Winterthur", Winterthur,«Top ausgestattete und geräumige Gartenwohnung»,Winterthur,113173,1662.5973262818,24.535003932,73339.0,70966,47.50791549682617,8.679285049438477,262646.0625,693462.125,47.507881600000005,8.679262449683211,429.73188188372063
230,2.5,78,1818,8408,"Wydenstrasse 43, 8408 Winterthur", Winterthur,«komfortable 2.5-Zimmerwohnung»,Winterthur,113173,1662.5973262818,24.535003932,73339.0,70966,47.50845718383789,8.680622100830078,262707.6875,693561.9375,47.5084631,8.6806289,346.87380877637105
230,4.5,107,2550,8408,"Gartenhof 16, 8408 Winterthur", Winterthur,«4.5-Zimmer-Wohnung im Gartenhof Quartier»,Winterthur,113173,1662.5973262818,24.535003932,73339.0,70966,47.50822067260742,8.688071250915527,262690.5625,694123.4375,47.50829605,8.688132973617284,267.3413616194734
230,2.5,65,1673,8408,"Holzlegistrasse 49a, 8408 Winterthur", Winterthur,«Nähe Lindenplatz Wülflingen»,Winterthur,113173,1662.5973262818,24.535003932,73339.0,70966,47.51272201538086,8.688642501831055,263191.65625,694158.5,47.51272405,8.688685631113618,666.8948026699151
230,4.5,107,1750,8408,"Wässerwiesenstrasse 65, 8408 Winterthur", Winterthur,«grosszügig und teilsaniert»,Winterthur,113173,1662.5973262818,24.535003932,73339.0,70966,47.5113639831543,8.686423301696777,263037.78125,693993.75,47.5113079,8.68639012218552,459.36348248751074
230,5.5,170,2980,8408,"Euelstrasse  56, 8408 Winterthur", Winterthur,«Die hat Klasse!»,Winterthur,113173,1662.5973262818,24.535003932,73339.0,70966,47.51079940795898,8.680351257324219,262968.0,693537.3125,47.51077355,8.680309730982017,518.3952901629327
230,4.5,102,2530,8408,"Lettenstrasse 27, 8408 Winterthur", Winterthur,"«Wunderschöne Lage zum Wohnen ""Mieten ohne Kaution""»",Winterthur,113173,1662.5973262818,24.535003932,73339.0,70966,47.505767822265625,8.690704345703125,262421.0,694326.125,47.5057178,8.690762599829661,475.2891954322616
230,2.5,70,1615,8408,"Wülflingerstrasse 349, 8408 Winterthur", Winterthur,«Zentrale Wohnung zu vermieten»,Winterthur,113173,1662.5973262818,24.535003932,73339.0,70966,47.51451873779297,8.683442115783691,263384.90625,693763.5625,47.5144532,8.683408750000002,803.0947223522235
230,2.5,76,2010,8408,"Lettenstrasse 29, 8408 Winterthur", Winterthur,«Wenn Träume wahr werden MIETEN OHNE KAUTION»,Winterthur,113173,1662.5973262818,24.535003932,73339.0,70966,47.50551986694336,8.690683364868164,262393.15625,694324.9375,47.5054697,8.690741690969709,484.75209430737027
53,4.0,80,2150,8180,8180 Bülach, Bülach,"«VIEL RAUM, RENOVIERT UND ZENTRAL»",Bülach,21372,1328.2784338098,28.0320044919,10973.0,78194,47.52263259887695,8.550629615783691,264136.6875,683747.5,47.5237734,8.5365546,352.31837720350853
53,3.5,96,2455,8180,"Fangletenstrasse 6, 8180 Bülach", Bülach,«Grosszügige Neubauwohnung im obersten Geschoss»,Bülach,21372,1328.2784338098,28.0320044919,10973.0,78194,47.52735137939453,8.53823471069336,264648.40625,682806.75,47.5272325,8.538255548104482,745.1668961668354
53,1.0,20,750,8180,"Schulhausstrasse, 8180 Bülach", Bülach,«Modern möbliertes WG-Zimmer in Bülach»,Bülach,21372,1328.2784338098,28.0320044919,10973.0,78194,47.51849365234375,8.537640571594238,263662.8125,682775.8125,47.51790053473066,8.534944712244581,393.8455376513235
53,3.5,88,2392,8180,"Fangletenstrasse 6, 8180 Bülach", Bülach,«Attraktive 3.5 Neubauwohnung im obersten Geschoss»,Bülach,21372,1328.2784338098,28.0320044919,10973.0,78194,47.52735137939453,8.53823471069336,264648.40625,682806.75,47.5272325,8.538255548104482,745.1668961668354
53,4.5,140,2750,8180,8180 Bülach, Bülach,«MIT GROSSZÜGIGER TERRASSE»,Bülach,21372,1328.2784338098,28.0320044919,10973.0,78194,47.52263259887695,8.550629615783691,264136.6875,683747.5,47.5237734,8.5365546,352.31837720350853
53,2.5,69,1680,8180,"Gartematt 12, 8180 Bülach", Bülach,«Ruhige Wohnung in Bülach mieten»,Bülach,21372,1328.2784338098,28.0320044919,10973.0,78194,47.51938247680664,8.542832374572754,263767.125,683165.4375,47.5193812,8.5428381,729.1669387283912
53,1.5,26,1500,8180,"Nordstrasse 15, 8180 Bülach", Bülach,«Ideal für Pendler»,Bülach,21372,1328.2784338098,28.0320044919,10973.0,78194,47.52282333374024,8.536430358886719,264143.09375,682677.9375,47.5228268,8.536445251558892,272.4475928930277
53,3.0,63,1850,8180,"Kasernenstrasse 70, 8180 Bülach", Bülach,«Ihr neues Zuhause! Modernes Wohnen in Bülach!»,Bülach,21372,1328.2784338098,28.0320044919,10973.0,78194,47.51632690429688,8.531111717224121,263414.9375,682287.4375,47.51640825,8.531065158751282,578.4679266382649
53,3.0,59,1580,8180,"Allmendstrasse 32, 8180 Bülach", Bülach,«Gemütliche Wohnung nähe Freibad»,Bülach,21372,1328.2784338098,28.0320044919,10973.0,78194,47.51484298706055,8.533146858215332,263252.28125,682443.0,47.5148751,8.53308610787775,717.7768550155641
53,3.5,96,2250,8180,"Gussstrasse 34, 8180 Bülach", Bülach,«IM GUSS - Leben mit WohnGefühl»,Bülach,21372,1328.2784338098,28.0320044919,10973.0,78194,47.52572250366211,8.537474632263184,264466.28125,682752.0,47.5256629,8.53754498671837,567.1311293721225
53,4.5,120,2460,8180,"Grampenweg 35, 8180 Bülach", Bülach,«Familien sind hier herzlich willkommen»,Bülach,21372,1328.2784338098,28.0320044919,10973.0,78194,47.51690673828125,8.534177780151367,263482.75,682517.4375,47.51684405,8.534174470862677,499.8044232059104
53,4.5,116,3190,8180,"Kreuzstrasse 11, 8180 Bülach", Bülach,«Attikawohnung in Bülach»,Bülach,21372,1328.2784338098,28.0320044919,10973.0,78194,47.51956558227539,8.541257858276367,263785.96875,683046.5625,47.5195128,8.5412607,611.7232288557489
68,4.5,127,2500,8427,8427 Rorbas, Rorbas,«MEINE WOHNOASE AN OBERSTER STELLE»,Rorbas,2885,649.7747747748,28.0762564991,462.0,69847,47.53139877319336,8.58006763458252,265143.15625,685950.1875,47.5316168529484,8.579512900921376,720.9741454215011
68,2.5,90,2120,8427,"Tössstr. 49, 8427 Rorbas", Rorbas,«***Ein kleines Juwel***»,Rorbas,2885,649.7747747748,28.0762564991,462.0,69847,47.53366088867188,8.578751564025879,265393.53125,685847.5,47.533621,8.578688453940753,951.3877888388785
68,4.5,164,2930,8427,"Breitestrasse 9, 8427 Freienstein", Freienstein,«4.5 Zimmer Maisonette Wohnung in umgebautem Bauernhaus»,Rorbas,2885,649.7747747748,28.0762564991,462.0,69847,47.53303146362305,8.583894729614258,265328.96875,686235.75,47.53303125,8.583836025459771,831.0792827416208
131,1.0,16,690,8134,"Soodstrasse 14, 8134 Adliswil", Adliswil,«Gepflegtes möbl. Zimmer an ruhiger Lage»,Adliswil,18944,2438.0952380952,37.7850506757,7507.0,89522,47.31591796875,8.525667190551758,241129.359375,682186.25,47.31581355,8.52569177046204,926.2907450955025
121,3.5,74,1989,8620,"Binzstr. 41, 8620 Wetzikon ZH", Wetzikon ZH,«Schöne Wohnung im Zentrum von Wetzikon!»,Wetzikon (ZH),24990,1486.6151100535,25.9943977591,14163.0,68951,47.329345703125,8.800528526306152,242946.546875,702939.6875,47.32924920000001,8.800488134465645,867.0116091708717
121,4.5,98,2200,8620,"Goldbühlstrasse 15, 8620 Wetzikon ZH", Wetzikon ZH,«Charmante und herzliche 4.5 Maisonette-Wohnung auf zwei Etagen in Wetzikon»,Wetzikon (ZH),24990,1486.6151100535,25.9943977591,14163.0,68951,47.32805633544922,8.806318283081055,242810.84375,703379.6875,47.3279732,8.806356302630924,813.7235220186076
121,3.5,80,2280,8620,"Bahnhofstrasse 99i, 8620 Wetzikon ZH", Wetzikon ZH,«Metropol Wetzikon: Mittendrin und mehr»,Wetzikon (ZH),24990,1486.6151100535,25.9943977591,14163.0,68951,47.324466705322266,8.797693252563477,242400.4375,702734.75,47.324463,8.7976871,434.9301682632987
121,3.5,89,2351,8620,"Weststrasse 50, 8620 Wetzikon ZH", Wetzikon ZH,«grosszügige Neubauwohnung (2022) / Überbauung Widumento»,Wetzikon (ZH),24990,1486.6151100535,25.9943977591,14163.0,68951,47.32775115966797,8.794655799865723,242761.421875,702498.875,47.3277557,8.7946563,864.5805167914434
121,5.5,114,2470,8620,"Schlossbachstrasse 24, 8620 Wetzikon ZH", Wetzikon ZH,«Zentral und gemütlich mit einem Chemineé»,Wetzikon (ZH),24990,1486.6151100535,25.9943977591,14163.0,68951,47.32216262817383,8.79813003540039,242144.796875,702772.25,47.32216205,8.798245908965477,250.4703194517857
121,4.5,120,3440,8620,8620 Wetzikon ZH, Wetzikon ZH,«ATEMBERAUBEND GROSSE TERRASSE MIT CHEMINÉE»,Wetzikon (ZH),24990,1486.6151100535,25.9943977591,14163.0,68951,47.32967376708984,8.781332969665527,242958.046875,701488.3125,47.32417086775376,8.794619724551117,593.8338030717084
121,2.5,78,1750,8620,"Poststrasse 12, 8620 Wetzikon ZH", Wetzikon ZH,«Moderne EG-Wohnung direkt beim Bahnhof Wetzikon»,Wetzikon (ZH),24990,1486.6151100535,25.9943977591,14163.0,68951,47.31986999511719,8.791029930114746,241880.875,702239.9375,47.3198047,8.79094538843918,812.0118937072795
121,2.5,57,1790,8620,"Usterstrasse 63C, 8620 Wetzikon ZH", Wetzikon ZH,«2.5-Zimmer-Maisonette-Wohnung»,Wetzikon (ZH),24990,1486.6151100535,25.9943977591,14163.0,68951,47.32746124267578,8.793194770812988,242727.40625,702389.0,47.327434100000005,8.793067171734236,914.2150302337992
121,2.5,65,1545,8620,"Bahnhofstr. 212, 8620 Wetzikon ZH", Wetzikon ZH,«Wohnen im Zentrum von Wetzikon»,Wetzikon (ZH),24990,1486.6151100535,25.9943977591,14163.0,68951,47.32878112792969,8.80404281616211,242888.53125,703206.375,47.32871795,8.804014061245095,829.0612450007463
121,5.5,160,2760,8620,"Tödistrasse 5, 8620 Wetzikon ZH", Wetzikon ZH,«Grosse Familienwohnung gesucht?»,Wetzikon (ZH),24990,1486.6151100535,25.9943977591,14163.0,68951,47.32584381103516,8.797143936157227,242552.703125,702690.625,47.32593095,8.797221571487135,587.5470092713044
249,3.5,70,2624,8103,"Maxgubler strasse 22, 8103 Unterengstringen", Unterengstringen,«Appartement à Unterengstringen»,Unterengstringen,3934,1177.8443113773,25.8261311642,1000.0,96737,47.40984725952149,8.453873634338379,251499.171875,676623.3125,,,
86,5.5,120,2950,8157,"Wehntalerstrasse 38, 8157 Dielsdorf", Dielsdorf,"«""Duplex in Dielsdorf""»",Dielsdorf,5966,1016.3543441227,31.847133758,4370.0,75326,47.48212432861328,8.453387260437012,259533.9375,676482.6875,47.4819913,8.4533964,414.47987756471474
86,3.0,73,1825,8157,"Schulstrasse 5, 8157 Dielsdorf", Dielsdorf,«3 Zimmer Gartenwohnung mit 2 Terrassen im Herzen von Dielsdorf»,Dielsdorf,5966,1016.3543441227,31.847133758,4370.0,75326,47.48201751708984,8.454813003540039,259523.375,676590.25,47.4820166,8.4548131,469.70880385315286
86,3.5,79,1650,8157,"Gumpenwiesenstr. 33, 8157 Dielsdorf", Dielsdorf,«Wohnen in Familienfreundlichen Quartier»,Dielsdorf,5966,1016.3543441227,31.847133758,4370.0,75326,47.47614288330078,8.456404685974121,258872.046875,676718.6875,47.4761442,8.4564049,462.53943013077765
86,2.5,48,1680,8157,"Regensbergstrasse 11, 8157 Dielsdorf", Dielsdorf,"«Erstbezug im exklusiven Neubauprojekt ""Bienenstock""»",Dielsdorf,5966,1016.3543441227,31.847133758,4370.0,75326,47.48141860961914,8.451350212097168,259453.546875,676330.125,47.4814189,8.45135,316.6760246451036
86,4.5,81,2150,8157,"Sandbuckweg 7, 8157 Dielsdorf", Dielsdorf,«Familienfreundliche Wohnung an ruhiger Wohnlage»,Dielsdorf,5966,1016.3543441227,31.847133758,4370.0,75326,47.477298736572266,8.456282615661621,259000.46875,676707.8125,47.4773004,8.4562829,402.08340810929826
96,3.5,95,2210,8106,"Loowiesenstrasse 41, 8106 Adlikon b. Regensdorf", Adlikon b. Regensdorf,«Attika-Wohnung im Grünen»,Regensdorf,18540,1268.1258549932,35.5717367853,11126.0,73522,47.45358276367188,8.462523460388184,256369.578125,677212.625,,,
96,4.5,104,2500,8106,"Wehntalerstrasse 295, 8106 Adlikon b. Regensdorf", Adlikon b. Regensdorf,«Renovierte 4.5 Zimmer-Whg. mit Bastelraum per sofort frei»,Regensdorf,18540,1268.1258549932,35.5717367853,11126.0,73522,47.448997497558594,8.466146469116211,255863.40625,677492.5,,,
96,3.5,103,2235,8106,"Rebrainstrasse 17, 8106 Adlikon b. Regensdorf", Adlikon b. Regensdorf,«Grosszügige Wohnung mit eigenem Waschturm»,Regensdorf,18540,1268.1258549932,35.5717367853,11126.0,73522,47.44966506958008,8.466696739196777,255938.21875,677533.0625,,,
96,4.5,116,2050,8106,"Hummelackerstr. 29, 8106 Adlikon b. Regensdorf", Adlikon b. Regensdorf,«Wohnen in der Sonnhalde»,Regensdorf,18540,1268.1258549932,35.5717367853,11126.0,73522,47.45203399658203,8.464168548583984,256199.25,677338.9375,,,
96,4.5,114,2380,8106,"Loowiesenstrasse 41, 8106 Adlikon b. Regensdorf", Adlikon b. Regensdorf,«Attikawohnung mit riesiger Sonnenterrasse!»,Regensdorf,18540,1268.1258549932,35.5717367853,11126.0,73522,47.45358276367188,8.462523460388184,256369.578125,677212.625,,,
96,4.0,108,2310,8106,"Loowiesenstrasse 29, 8106 Adlikon b. Regensdorf", Adlikon b. Regensdorf,«Schöne Attikawohnung im Grünen»,Regensdorf,18540,1268.1258549932,35.5717367853,11126.0,73522,47.45315933227539,8.463363647460938,256323.6875,677276.5625,,,
2,3.0,70,1740,8910,"zürichstrasse 157, 8910 Affoltern am Albis", Affoltern am Albis,«Attrakive 3 Zimmer Wohnug nähe Zentrum von Affoltern a.A.»,Affoltern am Albis,12303,1161.7563739377,28.7003169959,6920.0,72583,47.28336334228516,8.453010559082031,237436.8125,676740.0625,47.2833646,8.452936028818119,313.9464233628058
2,3.5,91,2670,8910,"Alte Dorfstrasse 28, 8910 Affoltern am Albis", Affoltern am Albis,«Ihre Wohlfühloase in Affoltern am Albis!»,Affoltern am Albis,12303,1161.7563739377,28.7003169959,6920.0,72583,47.27804946899414,8.454066276550293,236846.921875,676827.5625,47.278031850000005,8.45392601778319,772.0144913559692
2,3.5,81,1900,8910,"Zürichstrasse 170, 8910 Affoltern am Albis", Affoltern am Albis,«Totalsanierte 3.5 Zimmerwohnung!»,Affoltern am Albis,12303,1161.7563739377,28.7003169959,6920.0,72583,47.28475570678711,8.453343391418457,237591.71875,676763.3125,47.28475635,8.453435599999999,236.36285239037312
2,3.5,80,2089,8910,"Pfruendhofstrasse 54, 8910 Affoltern am Albis", Affoltern am Albis,«Schöne Attikawohnung wartet auf Sie!»,Affoltern am Albis,12303,1161.7563739377,28.7003169959,6920.0,72583,47.27677536010742,8.455918312072754,236707.1875,676969.5625,47.2767701,8.45583993526423,837.7260084680952
2,5.5,124,2769,8910,"Pfruendhofstrasse 48, 8910 Affoltern am Albis", Affoltern am Albis,«Schöne Wohnung in familienfreundlicher Umgebung»,Affoltern am Albis,12303,1161.7563739377,28.7003169959,6920.0,72583,47.276512145996094,8.45679759979248,236678.890625,677036.4375,47.27652985,8.456831881170883,765.5575785781925
161,3.5,100,5550,8702,"Wybüelstrasse 16, 8702 Zollikon", Zollikon,«3 1/2-Zimmer-Wohnung mit Seesicht»,Zollikon,13067,1664.5859872612,26.0580087243,5764.0,171602,47.34372329711914,8.57780647277832,244276.546875,686083.125,47.34366215,8.577787597060258,923.352795651199
161,5.5,137,4414,8125,"Bühlstrasse 5, 8125 Zollikerberg", Zollikerberg,"«Grosszügige, moderne Familienwohnung»",Zollikon,13067,1664.5859872612,26.0580087243,5764.0,171602,47.3474235534668,8.605626106262207,244718.671875,688179.0625,47.34743625,8.60559280327291,523.223092170625
161,3.5,93,2180,8125,"Trichtenhauserstrasse 29, 8125 Zollikerberg", Zollikerberg,«3.5-Zimmerwohnung im grünen Zollikerberg»,Zollikon,13067,1664.5859872612,26.0580087243,5764.0,171602,47.34943771362305,8.595818519592285,244931.515625,687434.75,47.34938455,8.595903254075168,240.51551395727464
161,4.5,92,2590,8125,"Rietholzstr. 60, 8125 Zollikerberg", Zollikerberg,«Schöne Maisonettewohnung an ruhiger Lage in Zollikerberg»,Zollikon,13067,1664.5859872612,26.0580087243,5764.0,171602,47.34309387207031,8.598343849182129,244229.4375,687636.0,47.34291195,8.598387711611437,644.4420377410239
247,3.5,96,2787,8952,"Engstringerstr.  Gebäude F 5,, 8952 Schlieren", Schlieren,«Helle 3.5 - Zimmerwohnung im Zentrum von Schlieren»,Schlieren,18791,2851.4415781487,46.1178223618,18945.0,65678,47.407169342041016,8.446950912475586,251194.5,676104.6875,,,
247,3.5,95,2611,8952,"Engstringerstr.  Gebäude E 5,, 8952 Schlieren", Schlieren,«Zentrale Lage in Schlieren - Helle 3.5-Zimmerwohnung»,Schlieren,18791,2851.4415781487,46.1178223618,18945.0,65678,47.4005012512207,8.44793701171875,250454.171875,676188.6875,,,
247,4.5,110,2843,8952,"Badenerstrasse 110, 8952 Schlieren", Schlieren,«Willkommen in der Stadtsiedlung Reitmen»,Schlieren,18791,2851.4415781487,46.1178223618,18945.0,65678,47.39788436889648,8.431954383850098,250147.828125,674985.9375,47.3979212,8.4319502,497.393466307553
247,3.5,100,2430,8952,"Engstringerstr.  Gebäude F 5,, 8952 Schlieren", Schlieren,«Offene 3.5-Zimmerwohnung im Zentrum von Schlieren»,Schlieren,18791,2851.4415781487,46.1178223618,18945.0,65678,47.407169342041016,8.446950912475586,251194.5,676104.6875,,,
247,3.5,72,2050,8952,"Urdorferstrasse 40b, 8952 Schlieren", Schlieren,«Vicinos - Deine Wohnung in Schlieren»,Schlieren,18791,2851.4415781487,46.1178223618,18945.0,65678,47.39493179321289,8.441030502319336,249828.53125,675675.25,47.3949878,8.4410686,815.7232249924468
247,3.5,73,1990,8952,"Urdorferstrasse 40b, 8952 Schlieren", Schlieren,«Vicinos - Wohnen von seiner schönsten Seite»,Schlieren,18791,2851.4415781487,46.1178223618,18945.0,65678,47.39493179321289,8.441030502319336,249828.53125,675675.25,47.3949878,8.4410686,815.7232249924468
247,3.5,87,2170,8952,"Badenerstrasse 90, 8952 Schlieren", Schlieren,«Die Stadtsiedlung Reitmen - Ihr neues Zuhause!»,Schlieren,18791,2851.4415781487,46.1178223618,18945.0,65678,47.39736175537109,8.433037757873535,250090.9375,675068.4375,47.3974238,8.4330379,471.1185811205721
247,3.5,76,2245,8952,"Goldschlägiplatz 2, 8952 Schlieren", Schlieren,«Wollen auch Sie hoch hinaus?»,Schlieren,18791,2851.4415781487,46.1178223618,18945.0,65678,47.40031051635742,8.441031455993652,250426.53125,675667.625,47.4002735,8.4410429,1092.664034674178
247,3.5,97,2210,8952,"Brandstrasse 43, 8952 Schlieren", Schlieren,«Mein Paradies auf 2 Etagen!»,Schlieren,18791,2851.4415781487,46.1178223618,18945.0,65678,47.40077590942383,8.441206932067871,250478.265625,675680.25,47.4007729,8.4411747,1138.3476632091288
247,2.5,57,1898,8952,"Goldschlägiplatz 1, 8952 Schlieren", Schlieren,«Schöner Wohnen!»,Schlieren,18791,2851.4415781487,46.1178223618,18945.0,65678,47.40030670166016,8.440872192382812,250425.640625,675655.6875,47.4002669,8.4408926,1083.898527495308
156,3.0,77,1920,8706,"Seestrasse 807, 8706 Meilen", Meilen,«Ein Prachtstück in Obermeilen»,Meilen,14335,1200.5862646566,23.1880013952,5910.0,139797,47.26577377319336,8.653788566589355,235697.21875,691958.625,47.26574805,8.653877197955648,1058.5949232380149
198,3.5,87,2450,8610,"Poststrasse, 8610 Uster", Uster,«AUSSERORDENTLICHE GELEGENHEIT IM HERZEN VON USTER!»,Uster,35007,1228.7469287469,23.0096837775,17237.0,79839,47.34986877441406,8.718284606933594,245123.453125,696686.5625,47.34934439544857,8.717324931152055,650.2838722225335
198,4.5,101,1911,8610,"Kanalweg 2, 8610 Uster", Uster,«Zentrale Traumwohnung in Uster»,Uster,35007,1228.7469287469,23.0096837775,17237.0,79839,47.345821380615234,8.7263765335083,244683.46875,697305.25,47.3458173,8.7262927,721.0086522502362
198,2.5,73,2150,8610,"Meierackerstr. 4, 8610 Uster", Uster,«MIETEN OHNE KAUTION - Familienfreundliche Wohnung»,Uster,35007,1228.7469287469,23.0096837775,17237.0,79839,47.36004257202149,8.716106414794922,246251.796875,696503.5,47.359964700000006,8.716023499999995,993.9001947638252
198,3.5,75,1846,8610,"Brunnenwiesenstr. 42, 8610 Uster", Uster,«MIETEN OHNE KAUTION - vertrautes Heim an zentraler Lage»,Uster,35007,1228.7469287469,23.0096837775,17237.0,79839,47.35499954223633,8.716510772705078,245691.71875,696543.25,47.3550258,8.71639620544213,629.3587608707281
198,3.5,88,2050,8610,"Freiestrasse 15, 8610 Uster", Uster,«Gewerbeobjekt und 3.5 Zimmer Maisonettewohnung in einem Haus»,Uster,35007,1228.7469287469,23.0096837775,17237.0,79839,47.3487434387207,8.721585273742676,245002.359375,696938.0,47.348734,8.721516587102256,506.0304797984954
198,4.5,101,1900,8610,"Wermatswilerstrasse 92, 8610 Uster", Uster,«Frisch sanierte 4.5-Zimmerwohnung»,Uster,35007,1228.7469287469,23.0096837775,17237.0,79839,47.35684967041016,8.730287551879883,245914.265625,697580.5625,47.35678465,8.730237649273883,540.0600802098468
198,3.5,83,2800,8610,"Oberlandstrasse 106, 8610 Uster", Uster,«3.5-Zimmer-Wohnung in Uster ZH»,Uster,35007,1228.7469287469,23.0096837775,17237.0,79839,47.35125732421875,8.720507621765137,245280.546875,696851.9375,47.3513114,8.720330213397371,338.5689202618468
198,4.5,113,3520,8610,"Im Lot 13, 8610 Uster", Uster,«Ganz oben! Tolle Wohnung in einzigartiger Siedlung»,Uster,35007,1228.7469287469,23.0096837775,17237.0,79839,47.34845733642578,8.711673736572266,244958.5,696189.625,47.3484604,8.711635,1066.6591868503142
198,4.5,96,2245,8610,"Oberlandstr. 77, 8610 Uster", Uster,«Sehr schöne Wohnung an zentraler Lage»,Uster,35007,1228.7469287469,23.0096837775,17237.0,79839,47.354713439941406,8.715872764587402,245659.03125,696495.5625,47.35467895,8.715747015597769,662.7935332861717
198,3.0,58,1630,8610,"Brandgrubenstrasse 23, 8610 Uster", Uster,«3-Zimmer Wohnung mit 58m² auf der 2. Etage»,Uster,35007,1228.7469287469,23.0096837775,17237.0,79839,47.35429382324219,8.710342407226562,245605.671875,696078.5,47.3542971,8.710385831122448,1049.6468171353854
198,3.5,73,1850,8610,"Breitigasse 13, 8610 Uster", Uster,«Mieten ohne Kaution - Schöne Wohnung direkt am Aabach»,Uster,35007,1228.7469287469,23.0096837775,17237.0,79839,47.3445930480957,8.735006332397461,244557.546875,697959.5,47.34455425,8.734944336584526,1009.9847754806293
157,4.0,95,1870,8618,"Willikonerstrasse 52, 8618 Oetwil am See", Oetwil am See,«Teilsaniert 4.0-Zimmer-Wohnung in Oetwil am See»,Oetwil am See,4840,792.1440261866,29.2561983471,2303.0,70794,47.26665115356445,8.7277250289917,235884.015625,697551.75,47.27067136490989,8.720148621691058,212.87156149916737
157,4.5,98,1965,8618,"Glärnischstrasse 62, 8618 Oetwil am See", Oetwil am See,«Familienwohnung sucht neue Bewohner»,Oetwil am See,4840,792.1440261866,29.2561983471,2303.0,70794,47.27785873413086,8.720203399658203,237120.65625,696962.25,47.27779099999999,8.720198686365018,1004.413727809546
157,5.5,140,4590,8618,8618 Oetwil am See, Oetwil am See,"«HELL UND MODERN, AN ZENTRALER LAGE»",Oetwil am See,4840,792.1440261866,29.2561983471,2303.0,70794,47.27474212646485,8.722920417785645,236777.71875,697173.5,47.27464285,8.718212669122739,670.2321245085981
157,3.5,78,1553,8618,"Gossauerstrasse 4, 8618 Oetwil am See", Oetwil am See,«Gemütliche Wohnung im Grünen - Pfannenstiel»,Oetwil am See,4840,792.1440261866,29.2561983471,2303.0,70794,47.27293395996094,8.721443176269531,236574.625,697065.0,47.27290365,8.72137941586925,470.6892196538791
157,4.5,101,2345,8618,"Bergstrasse 19, 8618 Oetwil am See", Oetwil am See,«4.5-Zimmerwohnungen in zentraler Lage»,Oetwil am See,4840,792.1440261866,29.2561983471,2303.0,70794,47.2691650390625,8.71776008605957,236151.03125,696793.1875,47.26918785,8.717905134020711,174.79909814256544
157,3.5,78,1720,8618,"Aronenweg 9, 8618 Oetwil am See", Oetwil am See,«Gemütliche Wohnung zum Wohlfühlen mit Balkon»,Oetwil am See,4840,792.1440261866,29.2561983471,2303.0,70794,47.27603149414063,8.718671798706055,236915.671875,696849.6875,47.27611025,8.71858270808443,825.8430670151981
157,3.5,87,1720,8618,"Glärnischstr. 56, 8618 Oetwil am See", Oetwil am See,«Sonnige Wohnung mit Cheminée sucht neue Mieter!»,Oetwil am See,4840,792.1440261866,29.2561983471,2303.0,70794,47.27792739868164,8.720858573913574,237129.0,697011.75,47.2779207,8.720856,1020.3126798861832
157,4.5,90,2040,8618,"Aronenweg 11, 8618 Oetwil am See", Oetwil am See,«Wohnung zum Wohlfühlen in Oetwil am See»,Oetwil am See,4840,792.1440261866,29.2561983471,2303.0,70794,47.27605438232422,8.718195915222168,236917.65625,696813.75,47.27600045,8.718127596012637,819.413148524016
155,2.5,62,1584,8708,"Im Wiesli 4, 8708 Männedorf", Männedorf,«2.5 Zimmerwohnung mit Seesicht»,Männedorf,11359,2381.3417190776,20.3803151686,4984.0,103577,47.25152969360352,8.6998291015625,234168.703125,695468.0,47.2515595,8.699844925308993,230.4517158151685
191,2.5,65,2050,8600,"Giessen-Lab, 8600 Dübendorf", Dübendorf,«Giessen-lab - Der Spot für Singles und Paare»,Dübendorf,29303,2151.4684287812,35.9451250725,20104.0,79563,47.4012451171875,8.611501693725586,250708.609375,688533.5,,,
191,3.5,75,2320,8600,"Giessen-Lab, 8600 Dübendorf", Dübendorf,«Ihr Zuhause ist Ihre Oase»,Dübendorf,29303,2151.4684287812,35.9451250725,20104.0,79563,47.4012451171875,8.611501693725586,250708.609375,688533.5,,,
83,2.5,81,2010,8107,"Mülibachstr. 52/Haus I, 8107 Buchs ZH", Buchs ZH,«Ihr neues Zuhause»,Buchs (ZH),6565,1124.1438356164,26.0472201066,2327.0,77391,47.453125,8.42919635772705,256286.46875,674700.1875,,,
38,5.5,200,2840,8462,"Poststrasse 6, 8462 Rheinau", Rheinau,«Exklusive Wohnung in der Nähe des Rheinfalls»,Rheinau,1316,147.3684210526,19.6808510638,694.0,72743,47.64480209350586,8.605175971984863,277779.03125,687653.25,47.6448759,8.605114363615701,1125.431673161893
38,5.5,100,2000,8462,"Poststrasse 61, 8462 Rheinau", Rheinau,«Maisonette-Wohnung mit Weitsicht»,Rheinau,1316,147.3684210526,19.6808510638,694.0,72743,47.640228271484375,8.600247383117676,277265.21875,687290.5,47.6402292,8.6002476,819.2752623428474
192,3.5,102,2272,8132,"Bachtelweg 2, 8132 Egg b. Zürich", Egg b. Zürich,«Terrassen Wohnung mit schöner Aussicht zu vermieten»,Egg,8796,605.3682037164,19.9181446112,2469.0,94471,47.29775619506836,8.692445755004883,239298.828125,694827.0,,,
